[
  {
        "id": 8061032,
        "name": "Banyuurip",
        "state": "",
        "country": "ID",
        "coord": {
            "lon": 111.268501,
            "lat": -6.8042
        }
    },
    {
        "id": 8061038,
        "name": "Tanjung Utara",
        "state": "",
        "country": "ID",
        "coord": {
            "lon": 111.370399,
            "lat": -6.817
        }
    },
    {
        "id": 8061040,
        "name": "Kedungtulup",
        "state": "",
        "country": "ID",
        "coord": {
            "lon": 111.271004,
            "lat": -6.8235
        }
    },
    {
        "id": 8061043,
        "name": "Krikilan",
        "state": "",
        "country": "ID",
        "coord": {
            "lon": 111.274803,
            "lat": -6.8289
        }
    },
    {
        "id": 8061045,
        "name": "Logung",
        "state": "",
        "country": "ID",
        "coord": {
            "lon": 111.287697,
            "lat": -6.8303
        }
    }
]